{
  "forSale": [
    {
      "id": "everett-10829",
      "address": "10829 43rd Ave SE",
      "city": "Everett",
      "state": "WA",
      "zip": "98208",
      "beds": 4,
      "baths": 3,
      "sqft": null,
      "price": 1020000,
      "image": "/assets/projects/northgate-adu.jpg",
      "lat": 47.978,
      "lng": -122.185
    }
  ],
  "sold": [
    {
      "id": "kirkland-14423",
      "address": "14423 75th Avenue NE",
      "city": "Kirkland",
      "state": "WA",
      "zip": "98034",
      "beds": 3,
      "baths": 3,
      "sqft": 1770,
      "price": 1090000,
      "represented": "Buyer",
      "closingDate": "2026-04-09",
      "soldCaption": "Sold spring 2026",
      "image": "/assets/listings/14423-75th-kirkland.png",
      "lat": 47.712,
      "lng": -122.215
    },
    {
      "id": "seattle-13033",
      "address": "13033 25th Avenue NE",
      "city": "Seattle",
      "state": "WA",
      "zip": "98125",
      "beds": 4,
      "baths": 3,
      "sqft": 2210,
      "price": 995000,
      "represented": "Seller",
      "closingDate": "2026-03-24",
      "soldCaption": "Sold spring 2026",
      "image": "/assets/listings/13033-25th-seattle.png",
      "lat": 47.725,
      "lng": -122.298
    },
    {
      "id": "newcastle-13768",
      "address": "13768 SE 83rd Court",
      "city": "Newcastle",
      "state": "WA",
      "zip": "98059",
      "beds": 4,
      "baths": 4,
      "sqft": 2859,
      "price": 1400000,
      "represented": "Seller",
      "closingDate": "2025-12-05",
      "soldCaption": "Sold late 2025",
      "image": "/assets/listings/13768-83rd-newcastle.png",
      "lat": 47.515,
      "lng": -122.118
    },
    {
      "id": "kirkland-13017",
      "address": "13017 111th Place NE",
      "city": "Kirkland",
      "state": "WA",
      "zip": "98034",
      "beds": 3,
      "baths": 2,
      "sqft": 1226,
      "price": 975000,
      "represented": "Seller",
      "closingDate": "2025-11-19",
      "soldCaption": "Sold fall 2025",
      "image": "/assets/projects/kenmore-adu.jpg",
      "lat": 47.718,
      "lng": -122.195
    },
    {
      "id": "bothell-607",
      "address": "607 217th Street SW",
      "city": "Bothell",
      "state": "WA",
      "zip": "98021",
      "beds": 5,
      "baths": 3,
      "sqft": 2553,
      "price": 1130000,
      "represented": "Buyer",
      "closingDate": "2025-10-31",
      "soldCaption": "Sold fall 2025",
      "image": "/assets/listings/607-217-bothell.png",
      "lat": 47.765,
      "lng": -122.238
    },
    {
      "id": "issaquah-talus",
      "address": "Sample sale · Talus",
      "city": "Issaquah",
      "state": "WA",
      "zip": "98027",
      "beds": 4,
      "baths": 2.5,
      "sqft": 2380,
      "price": 1185000,
      "represented": "Buyer",
      "closingDate": "2025-09-10",
      "soldCaption": "Sold 2025",
      "image": "/assets/projects/northgate-adu.jpg",
      "lat": 47.545,
      "lng": -122.055
    },
    {
      "id": "bellevue-sale",
      "address": "Representative closing · Bellevue",
      "city": "Bellevue",
      "state": "WA",
      "zip": "98006",
      "beds": 3,
      "baths": 2,
      "sqft": 1890,
      "price": 1325000,
      "represented": "Seller",
      "closingDate": "2025-08-15",
      "soldCaption": "Sold 2025",
      "image": "/assets/projects/greenwood-townhomes.jpg",
      "lat": 47.57,
      "lng": -122.12
    },
    {
      "id": "redmond-sale",
      "address": "Representative closing · Redmond",
      "city": "Redmond",
      "state": "WA",
      "zip": "98052",
      "beds": 4,
      "baths": 3,
      "sqft": 2460,
      "price": 1450000,
      "represented": "Buyer",
      "closingDate": "2025-07-22",
      "soldCaption": "Sold 2025",
      "image": "/assets/projects/phinney-infill.jpg",
      "lat": 47.67,
      "lng": -122.12
    },
    {
      "id": "shoreline-sale",
      "address": "Representative closing · Shoreline",
      "city": "Shoreline",
      "state": "WA",
      "zip": "98155",
      "beds": 3,
      "baths": 2,
      "sqft": 1650,
      "price": 875000,
      "represented": "Seller",
      "closingDate": "2025-06-01",
      "soldCaption": "Sold 2025",
      "image": "/assets/projects/shoreline-dadu.jpg",
      "lat": 47.755,
      "lng": -122.305
    },
    {
      "id": "woodinville-sale",
      "address": "Representative closing · Woodinville",
      "city": "Woodinville",
      "state": "WA",
      "zip": "98072",
      "beds": 4,
      "baths": 3,
      "sqft": 2680,
      "price": 1280000,
      "represented": "Buyer",
      "closingDate": "2025-05-18",
      "soldCaption": "Sold 2025",
      "image": "/assets/projects/kenmore-adu.jpg",
      "lat": 47.758,
      "lng": -122.145
    }
  ]
}
