[
  {
    "id": "northgate-adu",
    "displayName": "Northgate ADU",
    "program": "ADU",
    "city": "Seattle",
    "neighborhood": "Northgate",
    "status": "Completed",
    "units": 1,
    "sqft": 850,
    "description": "Detached accessory dwelling unit behind a 1950s ranch home. Net-zero ready, fully permitted.",
    "image": "/assets/projects/northgate-adu.jpg",
    "lat": 47.7062,
    "lng": -122.3282
  },
  {
    "id": "greenwood-townhomes",
    "displayName": "Greenwood Townhomes",
    "program": "Townhome",
    "city": "Seattle",
    "neighborhood": "Greenwood",
    "status": "Completed",
    "units": 3,
    "sqft": 5400,
    "description": "Three attached townhomes replacing a single-family lot. Sold out in two weeks.",
    "image": "/assets/projects/greenwood-townhomes.jpg",
    "lat": 47.7006,
    "lng": -122.3543
  },
  {
    "id": "shoreline-dadu",
    "displayName": "Shoreline DADU",
    "program": "DADU",
    "city": "Shoreline",
    "neighborhood": "Echo Lake",
    "status": "In Progress",
    "units": 1,
    "sqft": 640,
    "description": "Compact detached ADU designed for long-term rental. Permitted and under construction.",
    "image": "/assets/projects/shoreline-dadu.jpg",
    "lat": 47.7560,
    "lng": -122.3420
  },
  {
    "id": "phinney-infill",
    "displayName": "Phinney Infill",
    "program": "Small Multifamily",
    "city": "Seattle",
    "neighborhood": "Phinney Ridge",
    "status": "Completed",
    "units": 4,
    "sqft": 7200,
    "description": "Four-unit small multifamily on a corner lot. Mixed income design with two market-rate units.",
    "image": "/assets/projects/phinney-infill.jpg",
    "lat": 47.6770,
    "lng": -122.3560
  },
  {
    "id": "kenmore-adu",
    "displayName": "Kenmore ADU",
    "program": "ADU",
    "city": "Kenmore",
    "neighborhood": "Kenmore",
    "status": "Completed",
    "units": 1,
    "sqft": 750,
    "description": "Garage conversion ADU with modern finishes on a lakefront property.",
    "image": "/assets/projects/kenmore-adu.jpg",
    "lat": 47.7565,
    "lng": -122.2421
  },
  {
    "id": "bothell-townhomes",
    "displayName": "Bothell Townhomes",
    "program": "Townhome",
    "city": "Bothell",
    "neighborhood": "Downtown Bothell",
    "status": "In Progress",
    "units": 5,
    "sqft": 9500,
    "description": "Five attached townhomes near downtown Bothell's transit corridor.",
    "image": "/assets/projects/bothell-townhomes.jpg",
    "lat": 47.7623,
    "lng": -122.2054
  }
]
